{"business_id":"0DI8Dt2PJp07XkVvIElIcQ","name":"Innovative Vapors","neighborhood":"","address":"227 E Baseline Rd, Ste J2","city":"Tempe","state":"AZ","postal_code":"85283","latitude":33.3782141,"longitude":-111.936102,"stars":4.5,"review_count":17,"is_open":0,"attributes":["BikeParking: True","BusinessAcceptsBitcoin: False","BusinessAcceptsCreditCards: True","BusinessParking: {'garage': False, 'street': False, 'validated': False, 'lot': True, 'valet': False}","DogsAllowed: False","RestaurantsPriceRange2: 2","WheelchairAccessible: True"],"categories":["Tobacco Shops","Nightlife","Vape Shops","Shopping"],"hours":["Monday 11:0-21:0","Tuesday 11:0-21:0","Wednesday 11:0-21:0","Thursday 11:0-21:0","Friday 11:0-22:0","Saturday 10:0-22:0","Sunday 11:0-18:0"],"type":"business"}
{"business_id":"LTlCaCGZE14GuaUXUGbamg","name":"Cut and Taste","neighborhood":"","address":"495 S Grand Central Pkwy","city":"Las Vegas","state":"NV","postal_code":"89106","latitude":36.1922841,"longitude":-115.1592718,"stars":5.0,"review_count":9,"is_open":1,"attributes":["BusinessAcceptsBitcoin: False","BusinessAcceptsCreditCards: True"],"categories":["Caterers","Grocery","Food","Event Planning & Services","Party & Event Planning","Specialty Food"],"hours":["Monday 0:0-0:0","Tuesday 0:0-0:0","Wednesday 0:0-0:0","Thursday 0:0-0:0","Friday 0:0-0:0","Saturday 0:0-0:0","Sunday 0:0-0:0"],"type":"business"}
{"business_id":"EDqCEAGXVGCH4FJXgqtjqg","name":"Pizza Pizza","neighborhood":"Dufferin Grove","address":"979 Bloor Street W","city":"Toronto","state":"ON","postal_code":"M6H 1L5","latitude":43.661054,"longitude":-79.429089,"stars":2.5,"review_count":7,"is_open":1,"attributes":["Alcohol: none","Ambience: {'romantic': False, 'intimate': False, 'classy': False, 'hipster': False, 'touristy': False, 'trendy': False, 'upscale': False, 'casual': False}","BikeParking: True","BusinessAcceptsCreditCards: True","BusinessParking: {'garage': False, 'street': False, 'validated': False, 'lot': False, 'valet': False}","Caters: True","GoodForKids: True","GoodForMeal: {'dessert': False, 'latenight': False, 'lunch': False, 'dinner': False, 'breakfast': False, 'brunch': False}","HasTV: True","NoiseLevel: quiet","OutdoorSeating: False","RestaurantsAttire: casual","RestaurantsDelivery: True","RestaurantsGoodForGroups: True","RestaurantsPriceRange2: 1","RestaurantsReservations: False","RestaurantsTableService: False","RestaurantsTakeOut: True","WiFi: free"],"categories":["Restaurants","Pizza","Chicken Wings","Italian"],"hours":["Monday 11:0-2:0","Tuesday 11:0-2:0","Wednesday 11:0-2:0","Thursday 11:0-3:0","Friday 11:0-3:0","Saturday 11:0-3:0","Sunday 11:0-2:0"],"type":"business"}
{"business_id":"cdk-qqJ71q6P7TJTww_DSA","name":"Comfort Inn","neighborhood":"Downtown Core","address":"321 Jarvis Street","city":"Toronto","state":"ON","postal_code":"M5B 2C2","latitude":43.6598286,"longitude":-79.3754006,"stars":3.0,"review_count":8,"is_open":1,"attributes":["BusinessAcceptsCreditCards: True","RestaurantsPriceRange2: 2","WiFi: free"],"categories":["Hotels & Travel","Event Planning & Services","Hotels"],"hours":null,"type":"business"}
{"business_id":"Cu4_Fheh7IrzGiK-Pc79ig","name":"Boomerang Baby","neighborhood":"","address":"10875 N Frankloyd Wright Blvd","city":"Scottsdale","state":"AZ","postal_code":"85259","latitude":33.5852707,"longitude":-111.8349538,"stars":3.5,"review_count":8,"is_open":1,"attributes":["BikeParking: True","BusinessAcceptsCreditCards: True","BusinessParking: {'garage': False, 'street': False, 'validated': False, 'lot': True, 'valet': False}","RestaurantsPriceRange2: 2","WheelchairAccessible: True"],"categories":["Baby Gear & Furniture","Shopping"],"hours":["Monday 10:0-18:0","Tuesday 10:0-18:0","Wednesday 10:0-18:0","Thursday 10:0-18:0","Friday 10:0-18:0","Saturday 10:0-18:0","Sunday 11:0-16:0"],"type":"business"}
{"business_id":"GDnbt3isfhd57T1QqU6flg","name":"Taco Bell","neighborhood":"","address":"11072 No Frank Lloyd Wright","city":"Scottsdale","state":"AZ","postal_code":"85259","latitude":33.58671,"longitude":-111.83541,"stars":2.5,"review_count":9,"is_open":1,"attributes":["Alcohol: none","Ambience: {'romantic': False, 'intimate': False, 'classy': False, 'hipster': False, 'divey': False, 'touristy': False, 'trendy': False, 'upscale': False, 'casual': False}","BikeParking: True","BusinessAcceptsCreditCards: True","BusinessParking: {'garage': False, 'street': False, 'validated': False, 'lot': False, 'valet': False}","DriveThru: True","GoodForKids: True","GoodForMeal: {'dessert': False, 'latenight': False, 'lunch': False, 'dinner': False, 'breakfast': False, 'brunch': False}","HasTV: False","NoiseLevel: quiet","OutdoorSeating: False","RestaurantsAttire: casual","RestaurantsDelivery: False","RestaurantsGoodForGroups: True","RestaurantsPriceRange2: 1","RestaurantsReservations: False","RestaurantsTableService: False","RestaurantsTakeOut: True","WiFi: no"],"categories":["Tex-Mex","Mexican","Fast Food","Restaurants"],"hours":["Monday 10:0-22:0","Tuesday 10:0-22:0","Wednesday 10:0-22:0","Thursday 10:0-22:0","Friday 10:0-22:0","Saturday 10:0-22:0","Sunday 10:0-22:0"],"type":"business"}
{"business_id":"qwAHit4Tuj1zpO7CxVwOMA","name":"CubeSmart Self Storage","neighborhood":"","address":"11000 North 115th Street","city":"Scottsdale","state":"AZ","postal_code":"85259","latitude":33.5864403,"longitude":-111.8325788,"stars":4.5,"review_count":11,"is_open":1,"attributes":["BusinessAcceptsCreditCards: True"],"categories":["Local Services","Self Storage"],"hours":["Monday 9:30-18:0","Tuesday 9:30-18:0","Wednesday 9:30-18:0","Thursday 9:30-18:0","Friday 9:30-18:0","Saturday 8:30-17:0","Sunday 11:0-15:0"],"type":"business"}
{"business_id":"MFneYHieJ_lnjMeFUGKVbw","name":"Revv Illusions","neighborhood":"","address":"2553 Wigwam Pkwy","city":"Henderson","state":"NV","postal_code":"89074","latitude":36.0345795,"longitude":-115.0977701,"stars":5.0,"review_count":7,"is_open":1,"attributes":null,"categories":["Nail Salons","Hair Salons","Beauty & Spas"],"hours":["Monday 8:0-19:0","Tuesday 8:0-19:0","Wednesday 8:0-19:0","Thursday 8:0-19:0","Friday 8:0-19:0","Saturday 8:0-17:0","Sunday 10:0-13:0"],"type":"business"}
{"business_id":"42romV8altAeuZuP2OC1gw","name":"Ohana Hawaiian BBQ","neighborhood":"","address":"1500 N Green Valley Pkwy, Ste 230","city":"Henderson","state":"NV","postal_code":"89074","latitude":36.029596485,"longitude":-115.085821152,"stars":4.0,"review_count":38,"is_open":0,"attributes":["Alcohol: none","Ambience: {'romantic': False, 'intimate': False, 'classy': False, 'hipster': False, 'divey': False, 'touristy': False, 'trendy': False, 'upscale': False, 'casual': True}","BusinessAcceptsCreditCards: True","BusinessParking: {'garage': False, 'street': False, 'validated': False, 'lot': True, 'valet': False}","Caters: True","GoodForKids: True","GoodForMeal: {'dessert': False, 'latenight': False, 'lunch': True, 'dinner': True, 'breakfast': False, 'brunch': False}","HasTV: True","NoiseLevel: quiet","OutdoorSeating: False","RestaurantsAttire: casual","RestaurantsDelivery: False","RestaurantsGoodForGroups: True","RestaurantsPriceRange2: 1","RestaurantsReservations: False","RestaurantsTableService: False","RestaurantsTakeOut: True","WiFi: no"],"categories":["Hawaiian","Restaurants","Barbeque"],"hours":["Monday 11:0-21:30","Tuesday 11:0-21:30","Wednesday 11:0-21:30","Thursday 11:0-21:30","Friday 11:0-21:30","Saturday 11:0-21:30","Sunday 11:30-21:0"],"type":"business"}
{"business_id":"Tc24GX9-ZPr4_SHU0nJZZA","name":"Canyon Ridge Endodontics","neighborhood":"","address":"2525 W Carefree Hwy","city":"Phoenix","state":"AZ","postal_code":"85085","latitude":33.7967745,"longitude":-112.1154511,"stars":4.0,"review_count":4,"is_open":1,"attributes":["ByAppointmentOnly: True"],"categories":["General Dentistry","Health & Medical","Dentists"],"hours":null,"type":"business"}
{"business_id":"6EvETd9FVPJfhT_6AW9iEw","name":"Fossil Store","neighborhood":"","address":"6801 North Lake Mall Drive, 173","city":"Charlotte","state":"NC","postal_code":"28216","latitude":35.3521284,"longitude":-80.8512352,"stars":3.5,"review_count":3,"is_open":1,"attributes":null,"categories":["Leather Goods","Fashion","Watches","Accessories","Shopping"],"hours":["Monday 10:0-21:0","Tuesday 10:0-21:0","Wednesday 10:0-21:0","Thursday 10:0-21:0","Friday 10:0-22:0","Saturday 10:0-22:0","Sunday 11:0-19:0"],"type":"business"}
{"business_id":"SbfEPi-iR4ntf3wRQfxYyw","name":"Woofs, Wiggles N Wags All Breed Rescue","neighborhood":"","address":"","city":"Scottsdale","state":"AZ","postal_code":"","latitude":33.6031328399,"longitude":-111.971311071,"stars":4.5,"review_count":17,"is_open":1,"attributes":null,"categories":["Animal Shelters","Pets"],"hours":null,"type":"business"}
{"business_id":"YCsLfBVdLFeN2Necw1HPSA","name":"Stussy","neighborhood":"Ossington Strip","address":"1000 Queen Street W","city":"Toronto","state":"ON","postal_code":"M6J 1H1","latitude":43.644258153,"longitude":-79.4188293813,"stars":2.0,"review_count":5,"is_open":0,"attributes":["BusinessAcceptsCreditCards: True","BusinessParking: {'garage': False, 'street': False, 'validated': False, 'lot': False, 'valet': False}","RestaurantsPriceRange2: 3"],"categories":["Shoe Stores","Fashion","Men's Clothing","Shopping"],"hours":null,"type":"business"}
{"business_id":"CE0dABv9sfrXjDIJugpU8A","name":"Graceful Cake Creations","neighborhood":"","address":"330 S Gilbert Rd, Ste 15","city":"Mesa","state":"AZ","postal_code":"85204","latitude":33.4091719,"longitude":-111.7884179,"stars":5.0,"review_count":7,"is_open":1,"attributes":["BusinessAcceptsCreditCards: True","BusinessParking: {'garage': False, 'street': True, 'validated': False, 'lot': True, 'valet': False}","RestaurantsDelivery: True","RestaurantsPriceRange2: 2","RestaurantsTakeOut: True","WheelchairAccessible: True"],"categories":["Food","Bakeries"],"hours":["Monday 9:0-16:0","Tuesday 9:0-16:0","Wednesday 9:0-16:0","Thursday 9:0-16:0","Friday 9:0-16:0","Saturday 10:0-15:0","Sunday 10:0-15:0"],"type":"business"}
{"business_id":"826djy6K_9Fp0ptqJ2_Yag","name":"Chipotle Mexican Grill","neighborhood":"Downtown Core","address":"123 Front St, Unit 103 and 103-A","city":"Toronto","state":"ON","postal_code":"M5J 2M2","latitude":43.6449201,"longitude":-79.3833328,"stars":3.5,"review_count":68,"is_open":1,"attributes":["Alcohol: none","Ambience: {'romantic': False, 'intimate': False, 'classy': False, 'hipster': False, 'touristy': False, 'trendy': False, 'upscale': False, 'casual': True}","BikeParking: True","BusinessAcceptsCreditCards: True","BusinessParking: {'garage': True, 'street': False, 'validated': False, 'lot': False, 'valet': False}","Caters: True","DriveThru: False","GoodForKids: True","GoodForMeal: {'dessert': False, 'latenight': False, 'lunch': True, 'dinner': True, 'breakfast': False, 'brunch': False}","HasTV: False","NoiseLevel: loud","OutdoorSeating: False","RestaurantsAttire: casual","RestaurantsDelivery: False","RestaurantsGoodForGroups: True","RestaurantsPriceRange2: 2","RestaurantsReservations: False","RestaurantsTableService: False","RestaurantsTakeOut: True","WiFi: no"],"categories":["Fast Food","Mexican","Restaurants"],"hours":["Monday 10:45-22:0","Tuesday 10:45-22:0","Wednesday 10:45-22:0","Thursday 10:45-22:0","Friday 10:45-22:0","Saturday 10:45-22:0","Sunday 10:45-22:0"],"type":"business"}
{"business_id":"AGN788ObhwXu7rb8MEejIA","name":"Sheik Shoes","neighborhood":"Westside","address":"4300 Meadows Ln","city":"Las Vegas","state":"NV","postal_code":"89107","latitude":36.172259,"longitude":-115.1963237,"stars":1.5,"review_count":4,"is_open":1,"attributes":["BusinessAcceptsCreditCards: True","RestaurantsPriceRange2: 2","WheelchairAccessible: True"],"categories":["Shoe Stores","Fashion","Shopping"],"hours":null,"type":"business"}
{"business_id":"lHYMeXf8JH1Q8Dazn9s3Gg","name":"Discount Tire Store - Charlotte, NC","neighborhood":"University City","address":"7850 N Tryon St","city":"Charlotte","state":"NC","postal_code":"28262","latitude":35.295623,"longitude":-80.754429,"stars":4.5,"review_count":18,"is_open":1,"attributes":["BusinessAcceptsCreditCards: True"],"categories":["Tires","Automotive","Auto Parts & Supplies","Wheel & Rim Repair"],"hours":["Monday 8:0-18:0","Tuesday 8:0-18:0","Wednesday 8:0-18:0","Thursday 8:0-18:0","Friday 8:0-18:0","Saturday 8:0-17:0"],"type":"business"}
{"business_id":"PCNeANrp7puV3nE-HI2JrQ","name":"Gallagher Chiropractic","neighborhood":"","address":"7810 Ballantyne Commons Pkwy, Ste 101","city":"Charlotte","state":"NC","postal_code":"28277","latitude":35.059117,"longitude":-80.811356,"stars":5.0,"review_count":6,"is_open":1,"attributes":["AcceptsInsurance: True","BusinessAcceptsCreditCards: True","ByAppointmentOnly: False"],"categories":["Health & Medical","Chiropractors"],"hours":["Monday 8:30-18:0","Tuesday 8:30-12:0","Wednesday 8:30-18:0","Thursday 15:0-18:0","Friday 8:30-18:0"],"type":"business"}
{"business_id":"XxjrqA5jrzLH0EdCKUG9Mw","name":"I Deal Coffee","neighborhood":"Leslieville","address":"1560 Queen St E","city":"Toronto","state":"ON","postal_code":"M4L 1E9","latitude":43.6658792,"longitude":-79.3189651,"stars":4.5,"review_count":4,"is_open":0,"attributes":["BusinessAcceptsCreditCards: False","BusinessParking: {'garage': False, 'street': True, 'validated': False, 'lot': False, 'valet': False}","RestaurantsPriceRange2: 1","WiFi: free"],"categories":["Desserts","Coffee & Tea","Food"],"hours":null,"type":"business"}
{"business_id":"YPavuOh2XsnRbLfl0DH2lQ","name":"Lo-Lo's Chicken & Waffles","neighborhood":"","address":"1220 S Central Ave","city":"Phoenix","state":"AZ","postal_code":"85003","latitude":33.4353717916,"longitude":-112.073970304,"stars":4.0,"review_count":1276,"is_open":1,"attributes":["Alcohol: full_bar","Ambience: {'romantic': False, 'intimate': False, 'classy': False, 'hipster': False, 'divey': False, 'touristy': False, 'trendy': False, 'upscale': False, 'casual': True}","BYOB: False","BYOBCorkage: yes_free","BikeParking: True","BusinessAcceptsCreditCards: True","BusinessParking: {'garage': False, 'street': True, 'validated': False, 'lot': True, 'valet': True}","Caters: True","Corkage: False","DogsAllowed: False","GoodForKids: True","GoodForMeal: {'dessert': False, 'latenight': False, 'lunch': True, 'dinner': True, 'breakfast': False, 'brunch': False}","HasTV: True","NoiseLevel: average","OutdoorSeating: True","RestaurantsAttire: casual","RestaurantsCounterService: False","RestaurantsDelivery: False","RestaurantsGoodForGroups: True","RestaurantsPriceRange2: 2","RestaurantsReservations: False","RestaurantsTableService: True","RestaurantsTakeOut: True","WheelchairAccessible: True","WiFi: free"],"categories":["Restaurants","Waffles","Southern","Soul Food"],"hours":["Monday 9:0-22:0","Tuesday 9:0-22:0","Wednesday 9:0-22:0","Thursday 9:0-22:0","Friday 8:0-23:0","Saturday 8:0-23:0","Sunday 8:0-18:0"],"type":"business"}
{"business_id":"7cIRj82eLbyvNG43lemt1A","name":"Dee Gainey's Body Shop","neighborhood":"","address":"1537 S Mint St","city":"Charlotte","state":"NC","postal_code":"28203","latitude":35.2181627,"longitude":-80.8619108,"stars":4.5,"review_count":7,"is_open":1,"attributes":["BusinessAcceptsCreditCards: False"],"categories":["Auto Repair","Automotive","Body Shops"],"hours":["Monday 7:30-17:0","Tuesday 7:30-17:0","Wednesday 7:30-17:0","Thursday 7:30-17:0","Friday 7:30-16:0"],"type":"business"}
{"business_id":"XK5w8XnbP8CdeoB44kn1bg","name":"Mail Link","neighborhood":"","address":"848 N Rainbow Blvd","city":"Las Vegas","state":"NV","postal_code":"89107","latitude":36.1808408,"longitude":-115.241325,"stars":4.0,"review_count":14,"is_open":1,"attributes":["BusinessAcceptsCreditCards: True"],"categories":["Local Services","Notaries","Professional Services","Shipping Centers","Mailbox Centers","Lawyers"],"hours":["Monday 9:0-17:0","Tuesday 9:0-17:0","Wednesday 9:0-17:0","Thursday 9:0-17:0","Friday 9:0-17:0","Saturday 9:0-13:0"],"type":"business"}
{"business_id":"saWZO6hB4B8P-mIzS1--Xw","name":"Kabob Palace","neighborhood":"Spring Valley","address":"4811 S Rainbow Blvd","city":"Las Vegas","state":"NV","postal_code":"89103","latitude":36.1010205,"longitude":-115.2443122,"stars":2.5,"review_count":15,"is_open":0,"attributes":["Alcohol: full_bar","BusinessAcceptsCreditCards: True","BusinessParking: {'garage': False, 'street': False, 'validated': False, 'lot': True, 'valet': False}","GoodForKids: True","GoodForMeal: {'dessert': False, 'latenight': False, 'lunch': True, 'dinner': True, 'breakfast': False, 'brunch': False}","OutdoorSeating: True","RestaurantsAttire: casual","RestaurantsDelivery: False","RestaurantsGoodForGroups: True","RestaurantsPriceRange2: 2","RestaurantsReservations: True","RestaurantsTableService: True","RestaurantsTakeOut: True","WheelchairAccessible: True"],"categories":["Persian\/Iranian","Restaurants","Ethnic Food","Food","Greek","Specialty Food"],"hours":null,"type":"business"}
{"business_id":"P3LisOj7DktgGa7C5FYpnA","name":"Benjamin Franklin Plumbing","neighborhood":"West View","address":"451 Rochester Rd","city":"Pittsburgh","state":"PA","postal_code":"15237","latitude":40.5341627,"longitude":-80.0498873,"stars":4.0,"review_count":8,"is_open":1,"attributes":["BusinessAcceptsCreditCards: True"],"categories":["Plumbing","Home Services"],"hours":["Monday 9:30-9:0","Tuesday 9:30-9:0","Wednesday 9:30-9:0","Thursday 9:30-9:0","Friday 9:30-9:0","Saturday 9:30-9:0","Sunday 9:30-9:0"],"type":"business"}
{"business_id":"hovoWva_UjbnyLWEbnFvBw","name":"Thai Gourmet","neighborhood":"","address":"3732 Darrow Rd Ste 5","city":"Stow","state":"OH","postal_code":"44224","latitude":41.1657087,"longitude":-81.4413704,"stars":3.5,"review_count":68,"is_open":1,"attributes":["Alcohol: full_bar","Ambience: {'romantic': False, 'intimate': False, 'classy': False, 'hipster': False, 'divey': False, 'touristy': False, 'trendy': False, 'upscale': False, 'casual': True}","BikeParking: True","BusinessAcceptsCreditCards: True","BusinessParking: {'garage': False, 'street': False, 'validated': False, 'lot': True, 'valet': False}","GoodForKids: True","GoodForMeal: {'dessert': False, 'latenight': False, 'lunch': True, 'dinner': True, 'breakfast': False, 'brunch': False}","HasTV: False","NoiseLevel: average","OutdoorSeating: False","RestaurantsAttire: casual","RestaurantsDelivery: False","RestaurantsGoodForGroups: True","RestaurantsPriceRange2: 2","RestaurantsReservations: True","RestaurantsTableService: True","RestaurantsTakeOut: True","WheelchairAccessible: True","WiFi: no"],"categories":["Thai","Restaurants"],"hours":["Monday 11:0-21:30","Tuesday 11:0-21:30","Wednesday 11:0-21:30","Thursday 11:0-21:30","Friday 11:0-21:30","Saturday 11:0-22:30","Sunday 11:0-22:30"],"type":"business"}
{"business_id":"OLG7Gou8kmTLxogtJyP6ZQ","name":"Z-Teca","neighborhood":"The Beach","address":"2014 Queen Street E","city":"Toronto","state":"ON","postal_code":"M4L 1J3","latitude":43.6703273526,"longitude":-79.2991900072,"stars":1.5,"review_count":4,"is_open":0,"attributes":["BusinessAcceptsCreditCards: True","GoodForKids: True","GoodForMeal: {'dessert': False, 'latenight': False, 'lunch': False, 'dinner': False, 'breakfast': False, 'brunch': False}","HasTV: False","OutdoorSeating: False","RestaurantsAttire: casual","RestaurantsDelivery: False","RestaurantsGoodForGroups: True","RestaurantsPriceRange2: 1","RestaurantsReservations: False","RestaurantsTableService: False","RestaurantsTakeOut: True","WiFi: no"],"categories":["Tex-Mex","Restaurants"],"hours":["Monday 11:0-21:0","Tuesday 11:0-21:0","Wednesday 11:0-21:0","Thursday 11:0-21:0","Friday 11:0-21:0","Saturday 11:0-21:0","Sunday 11:0-21:0"],"type":"business"}
{"business_id":"93otbGHE0s0m-lU1osvg9w","name":"Rivertowne","neighborhood":"North Side","address":"337 N Shore Dr","city":"Pittsburgh","state":"PA","postal_code":"15212","latitude":40.4459861,"longitude":-80.0108802,"stars":3.0,"review_count":102,"is_open":1,"attributes":["Alcohol: full_bar","Ambience: {'romantic': False, 'intimate': False, 'classy': False, 'hipster': False, 'divey': False, 'touristy': False, 'trendy': False, 'upscale': False, 'casual': True}","BestNights: {'monday': False, 'tuesday': False, 'friday': True, 'wednesday': False, 'thursday': False, 'sunday': True, 'saturday': True}","BikeParking: True","BusinessAcceptsCreditCards: True","BusinessParking: {'garage': False, 'street': True, 'validated': False, 'lot': False, 'valet': False}","Caters: False","CoatCheck: False","GoodForDancing: False","GoodForKids: True","GoodForMeal: {'dessert': False, 'latenight': False, 'lunch': True, 'dinner': True, 'breakfast': False, 'brunch': False}","HappyHour: True","HasTV: True","Music: {'dj': False, 'background_music': False, 'no_music': False, 'karaoke': False, 'live': False, 'video': False, 'jukebox': False}","NoiseLevel: loud","OutdoorSeating: True","RestaurantsAttire: casual","RestaurantsDelivery: False","RestaurantsGoodForGroups: True","RestaurantsPriceRange2: 2","RestaurantsReservations: False","RestaurantsTableService: True","RestaurantsTakeOut: True","Smoking: no","WheelchairAccessible: True","WiFi: free"],"categories":["American (New)","Pubs","Nightlife","Bars","Restaurants"],"hours":null,"type":"business"}
{"business_id":"2VwwQup4Ko6tyDQeSYjC5Q","name":"Circle K","neighborhood":"","address":"701 E Bethany Home Road","city":"Phoenix","state":"AZ","postal_code":"85014","latitude":33.5234896,"longitude":-112.0646315,"stars":3.0,"review_count":6,"is_open":1,"attributes":["BikeParking: False","BusinessAcceptsCreditCards: True","BusinessParking: {'garage': False, 'street': False, 'validated': False, 'lot': True, 'valet': False}","RestaurantsPriceRange2: 1","WheelchairAccessible: True"],"categories":["Grocery","Food"],"hours":null,"type":"business"}
{"business_id":"L_thK7r3K_h5M4tV7amEKQ","name":"Honey B Hives Restaurant","neighborhood":"Scarborough","address":"2816 Markham Road","city":"Toronto","state":"ON","postal_code":"M1V 4C3","latitude":43.8229818717,"longitude":-79.2479152131,"stars":3.5,"review_count":118,"is_open":1,"attributes":["Alcohol: full_bar","Ambience: {'romantic': False, 'intimate': False, 'classy': False, 'hipster': False, 'touristy': False, 'trendy': False, 'upscale': False, 'casual': True}","BikeParking: True","BusinessAcceptsCreditCards: True","BusinessParking: {'garage': False, 'street': False, 'validated': False, 'lot': True, 'valet': False}","Caters: True","GoodForKids: True","GoodForMeal: {'dessert': False, 'latenight': True, 'lunch': False, 'dinner': False, 'breakfast': True, 'brunch': True}","HasTV: True","NoiseLevel: average","OutdoorSeating: False","RestaurantsAttire: casual","RestaurantsDelivery: False","RestaurantsGoodForGroups: True","RestaurantsPriceRange2: 1","RestaurantsReservations: True","RestaurantsTableService: True","RestaurantsTakeOut: True","WheelchairAccessible: True","WiFi: free"],"categories":["Diners","Italian","Sandwiches","Breakfast & Brunch","Burgers","Canadian (New)","Restaurants"],"hours":["Monday 0:0-0:0","Tuesday 0:0-0:0","Wednesday 0:0-0:0","Thursday 0:0-0:0","Friday 0:0-0:0","Saturday 0:0-0:0","Sunday 0:0-0:0"],"type":"business"}
{"business_id":"LIvXzdMJrIb6IY5Y3tqicA","name":"Nan and Byron's","neighborhood":"South End","address":"1714 S Blvd","city":"Charlotte","state":"NC","postal_code":"28203","latitude":35.212521,"longitude":-80.857639,"stars":3.5,"review_count":291,"is_open":0,"attributes":["Alcohol: full_bar","Ambience: {'romantic': False, 'intimate': False, 'classy': False, 'hipster': False, 'divey': False, 'touristy': False, 'trendy': True, 'upscale': False, 'casual': False}","BikeParking: True","BusinessAcceptsCreditCards: True","BusinessParking: {'garage': False, 'street': False, 'validated': False, 'lot': True, 'valet': False}","Caters: True","GoodForKids: True","GoodForMeal: {'dessert': False, 'latenight': False, 'lunch': False, 'dinner': False, 'breakfast': False, 'brunch': True}","HasTV: True","NoiseLevel: average","OutdoorSeating: True","RestaurantsAttire: casual","RestaurantsDelivery: False","RestaurantsGoodForGroups: True","RestaurantsPriceRange2: 2","RestaurantsReservations: True","RestaurantsTableService: True","RestaurantsTakeOut: True","WiFi: free"],"categories":["American (New)","Restaurants"],"hours":["Monday 11:0-23:0","Tuesday 11:0-23:0","Wednesday 11:0-23:0","Thursday 11:0-23:0","Friday 11:0-2:0","Saturday 10:0-2:0","Sunday 10:0-23:0"],"type":"business"}
